City,Lat,Lng,Max Temp,Humidity,Cloudiness,Wind Speed,Country,Date
dikson,73.5069,80.5464,40.33,92,100,4.34,RU,1629672590
scarborough,54.2797,-0.4044,60.62,92,85,1.01,GB,1629672482
richards bay,-28.783,32.0377,62.96,75,100,2.17,ZA,1629672590
ormara,25.2088,64.6357,78.39,89,46,11.1,PK,1629672590
punta arenas,-53.15,-70.9167,37.51,93,90,10.36,CL,1629672591
tasiilaq,65.6145,-37.6368,44.76,94,82,3.04,GL,1629672591
carutapera,-1.195,-46.02,77.43,84,20,7.45,BR,1629672591
nhulunbuy,-12.2333,136.7667,81.21,78,90,14.97,AU,1629672592
khatanga,71.9667,102.5,46.67,85,100,10.63,RU,1629672592
san pedro,14.35,121.0167,78.31,92,20,4.61,PH,1629672592
sergeyevka,53.88,67.4158,69.64,50,5,3.8,KZ,1629672592
comodoro rivadavia,-45.8667,-67.5,40.86,93,90,6.91,AR,1629672593
talnakh,69.4865,88.3972,50.97,98,99,4.23,RU,1629672593
san cristobal,7.7669,-72.225,80.78,83,29,3.24,VE,1629672593
tambilil,5.9622,124.6697,80.19,78,90,1.36,PH,1629672594
tovste,48.8466,25.7262,60.73,66,80,4.18,UA,1629672594
nome,64.5011,-165.4064,56.16,66,1,6.91,US,1629672594
bac lieu,9.285,105.7244,79.54,86,100,8.3,VN,1629672595
hermanus,-34.4187,19.2345,51.91,79,0,3.94,ZA,1629672595
ishigaki,24.3448,124.1572,82.53,94,75,9.22,JP,1629672595
bilma,18.6853,12.9164,92.21,12,12,4.07,NE,1629672596
klaksvik,62.2266,-6.589,52.72,97,100,4.0,FO,1629672596
flin flon,54.7682,-101.865,62.44,36,90,3.44,CA,1629672319
la ronge,55.1001,-105.2842,62.85,45,75,5.75,CA,1629672596
severo-kurilsk,50.6789,156.125,55.08,94,82,5.57,RU,1629672597
grand gaube,-20.0064,57.6608,66.6,66,5,4.0,MU,1629672597
mataura,-46.1927,168.8643,53.47,68,100,4.92,NZ,1629672259
oranjestad,12.524,-70.027,85.95,74,20,17.27,AW,1629672597
kavieng,-2.5744,150.7967,83.17,68,95,3.47,PG,1629672598
rikitea,-23.1203,-134.9692,68.79,58,59,16.31,PF,1629672261
labuan,5.2767,115.2417,75.56,88,20,2.3,MY,1629672258
qaanaaq,77.484,-69.3632,34.61,75,11,1.32,GL,1629672598
arraial do cabo,-22.9661,-42.0278,70.9,83,0,26.69,BR,1629672598
hami,42.8,93.45,65.37,24,0,16.4,CN,1629672599
walvis bay,-22.9575,14.5053,55.09,87,6,6.91,NA,1629672599
kyren,51.6828,102.1408,47.97,95,100,1.45,RU,1629672599
clyde river,70.4692,-68.5914,39.33,90,100,5.46,CA,1629672572
saint-philippe,-21.3585,55.7679,65.75,69,0,8.97,RE,1629672600
neder vindinge,55.0321,11.8836,58.93,80,6,11.68,DK,1629672600
nikolskoye,59.7035,30.7861,56.01,98,79,5.21,RU,1629672600
luderitz,-26.6481,15.1594,56.73,57,0,6.08,NA,1629672601
busselton,-33.65,115.3333,41.09,79,0,9.93,AU,1629672601
albany,42.6001,-73.9662,74.8,92,97,14.27,US,1629672259
new norfolk,-42.7826,147.0587,49.75,69,86,1.99,AU,1629672602
ushuaia,-54.8,-68.3,35.26,75,75,3.44,AR,1629672604
torbay,47.6666,-52.7314,55.38,82,75,9.22,CA,1629672604
portland,45.5234,-122.6762,72.57,56,75,1.01,US,1629672265
puro,12.4841,123.3827,80.42,80,100,3.8,PH,1629672604
smithers,54.7804,-127.1743,59.32,58,75,12.66,CA,1629672605
kahului,20.8947,-156.47,87.06,80,40,19.57,US,1629672480
ribeira grande,38.5167,-28.7,75.18,91,67,20.87,PT,1629672605
coahuayana,18.7333,-103.6833,79.07,92,100,3.09,MX,1629672605
geraldton,-28.7667,114.6,46.81,76,42,3.44,AU,1629672606
along,28.1667,94.7667,73.72,99,100,0.49,IN,1629672606
yellowknife,62.456,-114.3525,55.92,47,20,6.91,CA,1629672606
eisenerz,47.5333,14.8833,60.06,96,100,3.89,AT,1629672606
jamestown,42.097,-79.2353,80.24,66,1,5.01,US,1629672607
manicore,-5.8092,-61.3003,89.55,62,0,0.0,BR,1629672607
ahipara,-35.1667,173.1667,58.57,53,97,10.07,NZ,1629672607
upernavik,72.7868,-56.1549,38.39,91,97,14.99,GL,1629672608
bonavista,48.6499,-53.1147,55.4,74,67,18.79,CA,1629672608
kodiak,57.79,-152.4072,56.71,94,90,9.22,US,1629672608
rocha,-34.4833,-54.3333,52.14,86,48,8.23,UY,1629672609
huarmey,-10.0681,-78.1522,64.53,79,65,7.2,PE,1629672609
shingu,33.7333,135.9833,80.91,90,100,3.98,JP,1629672609
nobeoka,32.5833,131.6667,79.36,85,100,1.79,JP,1629672610
ilulissat,69.2167,-51.1,42.3,73,38,3.06,GL,1629672610
bara,10.3744,10.7288,72.79,87,97,3.89,NG,1629672610
xinqing,48.2333,129.5,61.75,96,100,10.78,CN,1629672611
nantucket,41.2835,-70.0995,75.99,76,75,12.66,US,1629672611
cayenne,4.9333,-52.3333,82.44,82,8,4.0,GF,1629672611
sao joao da barra,-21.6403,-41.0511,71.87,83,0,20.29,BR,1629672612
jaisalmer,26.9147,70.9181,85.5,55,13,14.72,IN,1629672612
mwinilunga,-11.7358,24.4293,66.83,36,64,2.66,ZM,1629672612
salinas,36.6777,-121.6555,81.97,66,40,13.8,US,1629672613
sioux lookout,50.1001,-91.917,75.58,43,75,8.05,CA,1629672613
butaritari,3.0707,172.7902,82.83,70,41,10.0,KI,1629672613
presidencia roque saenz pena,-26.7852,-60.4388,81.5,41,30,11.95,AR,1629672613
saint-joseph,-21.3667,55.6167,64.76,68,0,7.96,RE,1629672614
dashitou,43.3067,128.5114,64.18,86,51,5.39,CN,1629672614
tuktoyaktuk,69.4541,-133.0374,50.0,87,90,4.61,CA,1629672614
pundaguitan,6.3711,126.1689,81.54,75,100,4.07,PH,1629672615
avera,33.194,-82.5271,87.31,65,82,6.13,US,1629672615
college,64.8569,-147.8028,62.92,60,75,6.91,US,1629672615
tigzirt,36.8886,4.1198,81.82,43,17,8.75,DZ,1629672616
komsomolskiy,40.4272,71.7189,75.92,41,6,9.22,UZ,1629672616
meridian,43.6121,-116.3915,86.32,25,1,1.01,US,1629672355
bluff,-46.6,168.3333,54.81,77,100,13.6,NZ,1629672616
pasca,4.3072,-74.3006,64.47,89,56,2.71,CO,1629672617
karratha,-20.7377,116.8463,69.4,60,1,8.97,AU,1629672617
kirakira,-10.4544,161.9205,82.76,72,39,16.64,SB,1629672617
kankon,15.0167,74.0167,77.68,88,47,0.94,IN,1629672617
vestmannaeyjar,63.4427,-20.2734,54.97,97,100,23.31,IS,1629672618
avarua,-21.2078,-159.775,75.25,94,90,4.61,CK,1629672618
esperance,-33.8667,121.9,49.84,51,98,5.03,AU,1629672618
kapaa,22.0752,-159.319,86.32,66,40,4.0,US,1629672619
xuddur,4.1213,43.8894,71.91,80,1,17.74,SO,1629672619
vidalia,32.2177,-82.4135,88.86,74,40,12.66,US,1629672619
srednekolymsk,67.45,153.6833,59.54,62,100,6.93,RU,1629672620
vostochnyy,55.8167,37.8667,57.88,79,98,2.71,RU,1629672620
puerto ayora,-0.7393,-90.3518,76.96,88,95,11.01,EC,1629672620
thompson,55.7435,-97.8558,60.96,51,75,5.75,CA,1629672601
atuona,-9.8,-139.0333,77.38,74,6,18.9,PF,1629672621
namatanai,-3.6667,152.4333,83.52,69,69,2.89,PG,1629672621
port alfred,-33.5906,26.891,56.43,78,0,5.86,ZA,1629672259
bengkulu,-3.8004,102.2655,74.12,92,98,5.84,ID,1629672621
muscatine,41.4667,-91.1335,83.82,42,1,1.99,US,1629672398
lagoa,39.05,-27.9833,73.99,90,66,13.69,PT,1629672622
ostersund,63.1792,14.6357,45.05,87,25,10.36,SE,1629672387
cabo san lucas,22.8909,-109.9124,92.52,73,100,1.01,MX,1629672622
batticaloa,7.7102,81.6924,78.1,82,99,5.64,LK,1629672622
vaini,-21.2,-175.2,71.76,83,20,12.66,TO,1629672623
cape town,-33.9258,18.4232,52.12,100,0,2.3,ZA,1629672343
hilo,19.7297,-155.09,89.28,70,1,14.97,US,1629672623
yulara,-25.2406,130.9889,51.64,58,0,12.66,AU,1629672624
hithadhoo,-0.6,73.0833,81.97,70,39,10.07,MV,1629672624
soe,-9.8607,124.284,66.36,68,18,3.67,ID,1629672624
yar-sale,66.8333,70.8333,57.31,86,99,6.69,RU,1629672624
jiancheng,30.391,104.5491,69.01,91,100,4.25,CN,1629672625
taut,46.2833,21.9167,69.35,53,12,5.55,RO,1629672625
caravelas,-17.7125,-39.2481,70.41,86,6,5.64,BR,1629672625
vao,-22.6667,167.4833,68.02,58,46,17.2,NC,1629672626
salalah,17.0151,54.0924,75.6,91,79,5.5,OM,1629672626
kiruna,67.8557,20.2251,40.12,87,90,5.75,SE,1629672626
visby,57.6409,18.296,53.85,87,10,1.14,SE,1629672627
cidreira,-30.1811,-50.2056,71.19,61,5,6.42,BR,1629672627
saint george,37.1041,-113.5841,101.62,18,1,1.99,US,1629672494
pringsewu,-5.3582,104.9744,71.62,98,53,0.27,ID,1629672627
riyadh,24.6877,46.7219,95.14,17,0,2.19,SA,1629672544
tautira,-17.7333,-149.15,77.02,84,58,19.35,PF,1629672628
mahebourg,-20.4081,57.7,66.49,72,75,6.91,MU,1629672628
east london,-33.0153,27.9116,59.52,72,62,6.87,ZA,1629672628
cotonou,6.3654,2.4183,76.98,94,20,6.91,BJ,1629672629
krasnoselkup,65.7,82.4667,51.93,83,51,2.55,RU,1629672260
coulommiers,48.8145,3.085,62.85,84,15,1.01,FR,1629672629
airai,-8.9266,125.4092,62.26,62,41,2.82,TL,1629672629
saldanha,-33.0117,17.9442,46.45,81,0,9.06,ZA,1629672630
hualmay,-11.0964,-77.6139,62.92,82,33,7.52,PE,1629672630
harper,4.375,-7.7169,75.63,88,95,3.6,LR,1629672630
jawhar,2.7809,45.5005,74.46,87,65,10.89,SO,1629672631
izyaslav,50.1195,26.8213,58.5,74,76,4.36,UA,1629672631
bambous virieux,-20.3428,57.7575,66.45,72,75,6.91,MU,1629672631
sorong,-0.8833,131.25,79.45,82,96,5.84,ID,1629672632
jalu,29.0331,21.5482,79.38,61,0,13.27,LY,1629672632
sijunjung,-0.6876,100.9537,70.72,95,95,1.48,ID,1629672632
pisco,-13.7,-76.2167,64.45,77,0,9.22,PE,1629672633
baykit,61.67,96.37,52.36,89,95,2.55,RU,1629672633
barrow,71.2906,-156.7887,33.82,80,90,17.27,US,1629672633
bulaevo,54.9056,70.4439,69.33,63,3,5.19,KZ,1629672634
beloha,-25.1667,45.05,66.13,95,44,6.53,MG,1629672634
bredasdorp,-34.5322,20.0403,45.72,93,0,3.44,ZA,1629672260
zhumadian,32.9794,114.0294,70.52,97,100,7.11,CN,1629672634
labuhan,-6.8844,112.2051,74.88,84,47,7.94,ID,1629672635
aksay,47.26,39.87,70.72,54,85,3.67,RU,1629672635
husavik,66.0449,-17.3389,53.51,78,100,3.24,IS,1629672635
kaitangata,-46.2817,169.8464,52.32,69,92,5.03,NZ,1629672635
carnarvon,-24.8667,113.6333,57.27,45,60,9.22,AU,1629672366
bukan,36.521,46.2089,73.51,29,13,0.67,IR,1629672636
san roque,36.2107,-5.3842,74.21,90,46,6.22,ES,1629672636
dhidhdhoo,6.8833,73.1,80.49,76,62,6.02,MV,1629672636
garowe,8.4054,48.4845,75.99,69,49,17.92,SO,1629672637
kenora,49.8167,-94.4337,76.17,43,75,10.36,CA,1629672637
saint-augustin,51.226,-58.6502,57.94,74,80,13.24,CA,1629672637
norman wells,65.282,-126.8329,55.44,88,90,12.66,CA,1629672638
bryan,30.6744,-96.37,96.89,47,1,8.05,US,1629672352
nipawin,53.3668,-104.0009,62.64,42,1,18.41,CA,1629672638
domoni,-12.2569,44.5319,74.64,78,0,4.85,KM,1629672638
el dorado,38.7666,-120.5177,86.13,37,0,3.0,US,1629672376
mar del plata,-38.0023,-57.5575,46.42,100,40,0.0,AR,1629672584
harbour breton,47.4833,-55.7983,62.38,80,100,3.85,CA,1629672639
saint anthony,45.0205,-93.218,79.72,47,1,5.01,US,1629672639
mahanje,-9.9333,35.3333,66.65,57,57,3.47,TZ,1629672639
marrakesh,31.6315,-8.0083,78.87,53,0,4.61,MA,1629672640
napoleon,41.3923,-84.1252,91.44,76,56,7.85,US,1629672640
sokoto,13.0609,5.239,79.18,73,94,5.35,NG,1629672640
reconquista,-29.15,-59.65,69.85,60,1,13.22,AR,1629672641
hobart,-42.8794,147.3294,50.11,78,75,1.99,AU,1629672366
abu dhabi,24.4667,54.3667,91.51,84,100,3.44,AE,1629672426
burnie,-41.0667,145.9167,47.43,85,81,12.62,AU,1629672641
trinidad,-14.8333,-64.9,91.38,49,20,6.91,BO,1629672642
candelaria,13.9311,121.4233,78.08,89,100,1.16,PH,1629672642
tateyama,34.9833,139.8667,80.62,89,100,4.65,JP,1629672642
leningradskiy,69.3833,178.4167,34.57,95,100,6.51,RU,1629672643
cordoba,-31.4135,-64.1811,62.76,15,0,9.22,AR,1629672410
gigmoto,13.7796,124.39,82.0,83,100,5.73,PH,1629672643
cassilandia,-19.1133,-51.7342,78.73,27,0,3.02,BR,1629672643
hofn,64.2539,-15.2082,54.27,92,100,1.81,IS,1629672644
bathsheba,13.2167,-59.5167,83.01,83,40,21.85,BB,1629672644
san quintin,30.4833,-115.95,72.16,60,0,14.05,MX,1629672644
aklavik,68.2191,-135.0107,58.03,56,96,5.44,CA,1629672645
ourossogui,15.6064,-13.3211,87.8,79,0,4.61,SN,1629672645
torres,-29.3353,-49.7269,78.82,62,0,6.73,BR,1629672645
kyritz,52.9421,12.397,62.82,87,97,8.61,DE,1629672646
san patricio,28.017,-97.5169,95.72,48,30,14.29,US,1629672646
naco,31.3347,-109.9483,93.85,42,0,1.23,MX,1629672646
ambon,-3.6954,128.1814,75.34,100,40,8.05,ID,1629672646
victoria,22.2855,114.1577,85.32,84,83,1.01,HK,1629672647
petropavlovsk-kamchatskiy,53.0452,158.6483,57.79,100,90,2.24,RU,1629672647
sola,-13.8833,167.55,81.27,69,75,5.75,VU,1629672647
abha,18.2164,42.5053,70.05,18,0,0.0,SA,1629672648
provideniya,64.3833,-173.3,50.11,71,20,8.95,RU,1629672648
makakilo city,21.3469,-158.0858,89.92,50,1,8.05,US,1629672648
kieta,-6.2167,155.6333,83.7,72,69,7.61,PG,1629672648
baglung,28.2719,83.5898,70.86,98,100,0.87,NP,1629672649
kupang,-10.1667,123.5833,74.53,78,10,5.57,ID,1629672649
buraydah,26.326,43.975,93.65,15,0,10.27,SA,1629672649
tazovskiy,67.4667,78.7,49.23,88,46,5.32,RU,1629672650
bagdarin,54.4333,113.6,51.21,92,84,3.91,RU,1629672650
jennings,38.7192,-90.2604,92.14,51,20,8.05,US,1629672650
beidao,34.5686,105.8933,61.61,83,3,1.19,CN,1629672650
chokurdakh,70.6333,147.9167,37.08,93,100,15.59,RU,1629672651
cabadiangan,9.7531,122.4739,78.06,89,100,3.83,PH,1629672651
coihaique,-45.5752,-72.0662,39.81,56,40,4.61,CL,1629672651
parana,-31.732,-60.5238,65.52,32,0,11.43,AR,1629672652
north bend,43.4065,-124.2243,73.24,63,20,21.85,US,1629672652
kununurra,-15.7667,128.7333,80.51,23,0,1.72,AU,1629672652
byron bay,-28.65,153.6167,72.05,68,10,12.48,AU,1629672653
sharan,54.8167,54.0,70.74,47,68,2.91,RU,1629672653
chuy,-33.6971,-53.4616,55.83,90,37,9.28,UY,1629672653
mukhen,48.1,136.1,70.18,84,77,9.26,RU,1629672653
lamar,33.6668,-95.5836,97.65,49,1,11.5,US,1629672654
bukavu,-2.5083,28.8608,62.15,82,18,2.84,CD,1629672654
bosaso,11.2842,49.1816,87.35,55,100,22.86,SO,1629672654
tamandare,-8.7597,-35.1047,74.07,87,25,10.74,BR,1629672655
trstena,49.361,19.6125,62.19,84,100,3.67,SK,1629672655
gushikawa,26.3544,127.8686,83.43,83,1,11.5,JP,1629672655
cristobal obregon,16.35,-93.5333,75.58,93,100,1.86,MX,1629672655
karaton,-6.3424,106.1045,75.36,92,75,2.48,ID,1629672656
olafsvik,64.8945,-23.7142,55.94,90,100,13.09,IS,1629672656
antofagasta,-23.65,-70.4,60.08,88,54,4.61,CL,1629672656
xingcheng,40.6167,120.7167,76.84,88,94,13.29,CN,1629672657
kodarma,24.4667,85.6,77.2,85,87,4.9,IN,1629672657
shira,54.4911,89.9531,42.46,86,0,3.47,RU,1629672657
lebu,-37.6167,-73.65,46.58,74,63,3.96,CL,1629672658
birao,10.2849,22.7882,71.2,94,79,3.94,CF,1629672658
kenai,60.5544,-151.2583,57.02,85,90,8.05,US,1629672658
ponta do sol,32.6667,-17.1,72.23,78,0,3.22,PT,1629672260
senneterre,48.3835,-77.2328,79.02,64,56,6.67,CA,1629672659
hailar,49.2,119.7,60.03,71,54,2.91,CN,1629672659
izumo,35.3667,132.7667,76.89,94,75,3.44,JP,1629672659
brae,60.3964,-1.353,55.31,87,100,6.91,GB,1629672660
yumen,40.2833,97.2,56.28,26,0,6.85,CN,1629672660
ucluelet,48.9329,-125.5528,69.04,68,31,12.73,CA,1629672660
washington,47.5001,-120.5015,74.93,25,1,7.83,US,1629672660
ayolas,-27.4,-56.9,79.61,34,0,1.9,PY,1629672661
nehe,48.4833,124.8333,64.72,85,5,5.3,CN,1629672661
tilichiki,60.4667,166.1,56.89,78,99,8.19,RU,1629672661
sitka,57.0531,-135.33,66.09,52,20,6.91,US,1629672662
vysokogornyy,50.1167,139.15,61.27,92,85,5.14,RU,1629672662
bella union,-30.2752,-57.6007,66.38,74,88,13.87,UY,1629672662
ondjiva,-17.0667,15.7333,64.04,22,2,5.19,AO,1629672663
iqaluit,63.7506,-68.5145,44.33,87,90,32.21,CA,1629672663
jining,35.405,116.5814,68.14,95,100,14.07,CN,1629672385
beringovskiy,63.05,179.3167,51.67,84,31,5.46,RU,1629672663
plettenberg bay,-34.0527,23.3716,52.21,74,0,3.49,ZA,1629672664
laredo,27.5064,-99.5075,100.4,34,20,17.27,US,1629672664
chemainus,48.9163,-123.7194,69.87,52,40,13.8,CA,1629672664
sotouboua,8.5667,0.9833,70.97,94,71,2.33,TG,1629672664
bethel,41.3712,-73.414,72.72,94,100,1.99,US,1629672665
hovd,48.0056,91.6419,47.32,65,49,2.66,MN,1629672665
longyearbyen,78.2186,15.6401,40.51,79,100,0.96,SJ,1629672665
hachinohe,40.5,141.5,71.78,100,75,3.44,JP,1629672666
kayes,14.0,-11.0,77.43,90,100,4.7,ML,1629672666
utena,55.5,25.6,49.91,85,11,3.65,LT,1629672666
oxelosund,58.6706,17.1015,46.33,93,0,1.14,SE,1629672667
laguna,38.421,-121.4238,92.21,41,1,4.0,US,1629672667
mildura,-34.2,142.15,51.08,87,45,5.75,AU,1629672667
broken hill,-31.95,141.4333,49.71,81,75,8.05,AU,1629672668
raudeberg,61.9875,5.1352,52.47,91,25,13.87,NO,1629672668
port elizabeth,-33.918,25.5701,47.1,93,0,4.61,ZA,1629672492
namtsy,62.7161,129.6658,60.91,96,100,6.46,RU,1629672668
keti bandar,24.1447,67.4497,79.47,84,62,14.43,PK,1629672668
vostok,46.4856,135.8833,67.35,75,99,5.03,RU,1629672669
sukpak,51.6667,94.6333,44.15,88,54,3.51,RU,1629672669
mount isa,-20.7333,139.5,73.17,35,8,1.14,AU,1629672508
lagunas,-5.2269,-75.6753,82.27,65,59,2.91,PE,1629672670
baza,37.4907,-2.7726,78.58,34,62,1.01,ES,1629672670
pevek,69.7008,170.3133,39.81,87,98,3.44,RU,1629672670
alexandria,31.2156,29.9553,78.76,69,0,3.44,EG,1629671915
ancud,-41.8697,-73.8203,45.93,74,60,6.06,CL,1629672671
kathu,7.9178,98.3332,75.02,78,60,8.3,TH,1629672671
himensulan,10.5967,124.2821,78.66,75,93,7.05,PH,1629672671
bubaque,11.2833,-15.8333,79.61,77,100,7.83,GW,1629672671
conakry,9.538,-13.6773,77.07,94,75,4.61,GN,1629672672
kozhva,65.1073,57.0459,63.63,89,99,8.03,RU,1629672672
manaus,-3.1019,-60.025,90.1,55,20,5.75,BR,1629672583
isangel,-19.55,169.2667,75.31,60,40,6.91,VU,1629672672
takoradi,4.8845,-1.7554,75.6,88,18,3.18,GH,1629672673
san carlos de bariloche,-41.1456,-71.3082,37.15,60,75,17.27,AR,1629672436
salinopolis,-0.6136,-47.3561,80.1,79,20,13.0,BR,1629672673
baoro,5.6667,15.9667,66.43,97,73,2.39,CF,1629672673
escarcega,18.6089,-90.7454,77.88,89,97,2.91,MX,1629672674
letpadan,17.7833,95.75,75.97,92,67,3.15,MM,1629672674
sorland,67.667,12.6934,50.9,80,56,8.95,NO,1629672674
port moresby,-9.4431,147.1797,78.22,89,90,5.75,PG,1629672675
zhigansk,66.7697,123.3711,49.14,70,0,15.97,RU,1629672675
conceicao do araguaia,-8.2578,-49.2647,89.73,33,0,3.44,BR,1629672675
charters towers,-20.1,146.2667,69.3,65,21,11.39,AU,1629672676
kon tum,14.35,108.0,69.53,99,96,1.16,VN,1629672676
khipro,25.8285,69.3772,82.87,64,48,16.13,PK,1629672676
talcahuano,-36.7167,-73.1167,51.48,71,40,4.61,CL,1629672677
hervey bay,-25.2986,152.8535,62.71,69,1,8.66,AU,1629672497
noyabrsk,63.1994,75.4507,61.27,80,95,10.63,RU,1629672677
berck,50.4,1.6,62.71,100,90,2.3,FR,1629672677
lanquin,15.5667,-89.9667,85.73,96,92,2.62,GT,1629672677
urdoma,61.7533,48.5442,59.4,97,71,9.06,RU,1629672678
serebryanyy bor,56.8,124.8,54.48,97,100,8.46,RU,1629672678
fortuna,40.5982,-124.1573,78.42,67,1,3.0,US,1629672678
tena,-0.9833,-77.8167,83.16,75,21,0.56,EC,1629672679
hutchinson,38.0608,-97.9298,96.75,46,1,4.0,US,1629672455
magistralnyy,56.1725,107.4458,55.31,81,54,3.56,RU,1629672679
palmer,42.1584,-72.3287,72.63,88,90,5.01,US,1629672680
bouna,9.2667,-3.0,72.25,91,84,5.44,CI,1629672680
katangli,51.7102,143.2326,62.24,67,71,6.51,RU,1629672680
salo,45.6086,10.531,77.09,77,40,5.08,IT,1629672680
ketchikan,55.3422,-131.6461,63.23,60,34,5.06,US,1629672681
sunrise manor,36.2111,-115.0731,100.9,5,1,9.22,US,1629672681
adrar,20.5022,-10.0711,97.41,11,38,12.28,MR,1629672681
egvekinot,66.3167,-179.1667,47.88,85,100,2.59,RU,1629672682
dutse,11.7594,9.3392,74.52,82,92,7.87,NG,1629672682
basqal,40.7552,48.391,63.12,29,26,6.6,AZ,1629672682
bontang,0.1333,117.5,74.14,92,96,6.71,ID,1629672682
nanortalik,60.1432,-45.2371,47.46,77,35,2.91,GL,1629672683
pyapon,16.2833,95.6833,78.33,90,100,5.06,MM,1629672683
ust-kuyga,70.0167,135.6,46.38,91,100,2.57,RU,1629672683
jibuti,11.5,42.5,87.22,43,11,2.51,DJ,1629672584
marienburg,54.0359,19.0266,60.96,73,100,8.43,PL,1629672684
lewistown,40.5992,-77.5714,77.58,91,100,2.42,US,1629672648
sur,22.5667,59.5289,86.0,60,83,5.95,OM,1629672684
manhuacu,-20.2581,-42.0336,62.47,54,0,1.1,BR,1629672685
ulaanbaatar,47.9077,106.8832,44.73,87,40,2.24,MN,1629672685
ulladulla,-35.35,150.4667,73.87,48,7,9.6,AU,1629672685
roswell,34.0232,-84.3616,84.16,83,40,1.01,US,1629672686
mehamn,71.0357,27.8492,42.89,82,99,2.68,NO,1629672686
castro,-24.7911,-50.0119,63.39,48,0,2.26,BR,1629672686
yeppoon,-23.1333,150.7333,67.78,76,15,12.57,AU,1629672687
bembereke,10.2283,2.6634,71.98,91,83,0.78,BJ,1629672687
fukue,32.6881,128.8419,80.19,89,98,14.38,JP,1629672687
itoman,26.1247,127.6694,84.22,74,75,12.66,JP,1629672687
chernyshevskiy,63.0128,112.4714,51.12,63,59,0.98,RU,1629672688
ladario,-19.0047,-57.6017,85.8,24,0,3.02,BR,1629672688
linguere,15.3953,-15.1193,86.22,70,0,13.8,SN,1629672688
la arena,-5.3466,-80.7109,74.61,56,35,18.37,PE,1629672689
codrington,-38.2667,141.9667,49.35,73,77,14.41,AU,1629672689
kamenka,51.3223,42.7678,63.23,71,45,5.95,RU,1629672689
sfantu gheorghe,45.8667,25.7833,63.27,78,42,2.42,RO,1629672690
morgan city,29.6994,-91.2068,95.0,66,1,10.36,US,1629672690
georgetown,5.4112,100.3354,78.75,84,40,3.44,MY,1629672690
rio grande,-32.035,-52.0986,68.11,90,60,10.67,BR,1629672617
naze,28.3667,129.4833,79.72,87,89,14.43,JP,1629672566
saskylakh,71.9167,114.0833,47.61,69,100,6.44,RU,1629672691
padang,-0.9492,100.3543,75.25,85,97,3.94,ID,1629672691
zverinogolovskoye,54.4586,64.8542,71.26,44,4,6.82,RU,1629672691
nara,34.6851,135.8049,78.12,90,100,4.85,JP,1629672692
sibolga,1.7427,98.7792,76.08,80,100,2.77,ID,1629672692
sungairaya,0.7,108.9,76.51,86,100,3.49,ID,1629672692
adre,13.4667,22.2,69.57,84,100,5.48,TD,1629672693
caxito,-8.5785,13.6643,72.75,83,56,4.94,AO,1629672693
forres,57.6113,-3.6108,62.78,92,73,3.27,GB,1629672693
kualakapuas,-3.0091,114.3876,73.56,97,100,1.81,ID,1629672693
guerrero negro,27.9769,-114.0611,75.65,57,0,17.96,MX,1629672694
lompoc,34.6391,-120.4579,78.94,68,1,10.0,US,1629672694
canatlan,24.5167,-104.7833,75.33,60,99,1.97,MX,1629672694
santa isabel do rio negro,-0.4139,-65.0192,78.76,78,56,1.23,BR,1629672695
visakhapatnam,17.69,83.2093,80.49,89,75,2.3,IN,1629672695
kabo,7.6994,18.629,69.87,95,79,1.79,CF,1629672695
mayahi,13.9553,7.6712,82.06,58,90,6.67,NE,1629672696
port-gentil,-0.7193,8.7815,76.96,83,40,9.22,GA,1629672696
imeni poliny osipenko,52.4201,136.4853,62.44,88,98,7.74,RU,1629672696
show low,34.2542,-110.0298,86.68,33,1,20.71,US,1629672427
ciudad guayana,8.3533,-62.6528,77.74,88,90,3.51,VE,1629672697
constitucion,-35.3333,-72.4167,48.78,76,15,9.04,CL,1629672656
valparaiso,-33.0393,-71.6273,56.84,66,0,11.5,CL,1629672697
mormugao,15.4,73.8,78.13,85,21,1.03,IN,1629672697
lavrentiya,65.5833,-171.0,50.7,77,51,3.22,RU,1629672698
chabahar,25.2919,60.643,78.66,88,71,5.19,IR,1629672698
tiksi,71.6872,128.8694,40.51,97,100,4.85,RU,1629672698
xinan,26.72,119.8556,80.06,91,95,1.68,CN,1629672698
hasaki,35.7333,140.8333,79.2,89,100,12.59,JP,1629672699
goundam,16.4145,-3.6708,83.28,56,71,3.58,ML,1629672699
mapiripan,2.8892,-72.1256,76.51,88,76,1.45,CO,1629672699
lesnica,44.6525,19.31,64.65,44,23,5.7,RS,1629672700
clinton,42.587,-82.9199,89.62,69,75,3.44,US,1629672700
najran,17.4924,44.1277,79.45,26,86,3.56,SA,1629672700
belyy yar,53.6039,91.3903,39.09,100,1,2.24,RU,1629672701
bielefeld,52.0333,8.5333,62.02,89,76,1.57,DE,1629672701
uruzgan,32.8333,66.0,67.91,11,0,4.63,AF,1629672701
bail hongal,15.8167,74.8667,70.09,92,81,7.11,IN,1629672702
kalmunai,7.4167,81.8167,77.97,86,100,10.83,LK,1629672702
tavrichanka,43.3378,131.8639,64.26,85,8,3.87,RU,1629672702
eregli,37.5133,34.0467,67.44,33,0,1.12,TR,1629672703
alice springs,-23.7,133.8833,60.35,41,11,16.11,AU,1629672637
west wendover,40.7391,-114.0733,78.01,27,1,5.75,US,1629672703
manokwari,-0.8667,134.0833,76.46,89,100,13.65,ID,1629672703
acapulco,16.8634,-99.8901,77.52,92,100,4.74,MX,1629672663
morant bay,17.8815,-76.4093,89.22,79,93,8.05,JM,1629672704
apatity,67.5641,33.4031,40.24,98,100,7.16,RU,1629672704
asau,46.4333,26.4,65.75,64,90,1.14,RO,1629672704
puerto del rosario,28.5004,-13.8627,73.08,78,4,12.66,ES,1629672705
port lincoln,-34.7333,135.8667,52.97,60,61,21.65,AU,1629672705
derzhavinsk,51.1,66.3167,69.85,52,4,9.35,KZ,1629672706
zhangye,38.9342,100.4517,61.57,34,97,11.81,CN,1629672706
port hardy,50.6996,-127.4199,60.98,67,75,16.11,CA,1629672706
katsuura,35.1333,140.3,80.71,91,100,8.28,JP,1629672706
pimentel,-6.8367,-79.9342,66.49,81,0,3.0,PE,1629672707
sovetskiy,61.3614,63.5842,69.26,53,62,8.68,RU,1629672707
asosa,10.0667,34.5333,59.56,97,100,4.23,ET,1629672707
skowhegan,44.7651,-69.7192,72.03,98,98,8.01,US,1629672708
kibakwe,-6.7167,36.3667,62.1,85,5,4.83,TZ,1629672708
chapais,49.7834,-74.8492,78.58,64,99,5.88,CA,1629672708
bonthe,7.5264,-12.505,75.87,90,100,8.57,SL,1629672708
hambantota,6.1241,81.1185,78.75,83,100,9.4,LK,1629672709
faanui,-16.4833,-151.75,78.33,78,8,14.25,PF,1629672709
victor harbor,-35.5667,138.6167,50.47,94,100,1.99,AU,1629672709
gardendale,33.6601,-86.8128,89.58,73,40,11.5,US,1629672710
bulungu,-4.55,18.6,82.71,42,83,1.61,CD,1629672710
nohar,29.1833,74.7667,84.56,74,7,8.63,IN,1629672710
valer,60.6785,11.8331,50.5,67,8,2.84,NO,1629672711
tual,-5.6667,132.75,80.13,81,99,12.8,ID,1629672711
gediz,39.0417,29.41,64.36,77,33,6.89,TR,1629672711
aras,42.5617,-2.356,64.2,72,0,4.61,ES,1629672712
ponta delgada,37.7333,-25.6667,74.12,88,20,8.05,PT,1629672712
havelock,34.8791,-76.9013,84.43,87,20,3.0,US,1629672712
sao filipe,14.8961,-24.4956,79.11,89,75,12.28,CV,1629672712
prieska,-29.6641,22.7474,50.99,22,0,3.78,ZA,1629672713
toora-khem,52.4675,96.11,40.21,98,79,1.3,RU,1629672713
palmas de monte alto,-14.2672,-43.1619,76.5,41,22,10.8,BR,1629672713
dagana,16.5165,-15.5068,87.78,60,52,20.54,MR,1629672714
merritt island,28.5392,-80.672,91.67,72,90,8.05,US,1629672714
ejura,7.3856,-1.3562,72.61,95,99,4.27,GH,1629672714
arauca,7.0847,-70.7591,78.94,83,26,2.15,CO,1629672418
kruisfontein,-34.0033,24.7314,44.89,86,0,3.58,ZA,1629672714
broome,42.2506,-75.833,81.18,90,75,1.01,US,1629672715
sahuaripa,29.05,-109.2333,99.59,31,4,2.28,MX,1629672715
aden,12.7794,45.0367,84.97,78,39,10.58,YE,1629672685
miyako,39.6367,141.9525,72.84,95,100,1.48,JP,1629672716
longkou,37.6508,120.3286,76.93,83,100,4.41,CN,1629672716
luoyang,34.6836,112.4536,71.71,95,100,1.5,CN,1629672716
lisakovsk,52.5369,62.4936,72.48,38,0,6.73,KZ,1629672716
barra,-11.0894,-43.1417,78.6,46,9,10.42,BR,1629672717
ko samui,9.5357,99.9357,81.41,77,94,14.67,TH,1629672717
talaya,61.3833,152.75,70.86,62,100,3.85,RU,1629672717
nemuro,43.3236,145.575,58.41,93,100,10.36,JP,1629672718
baltasi,56.3462,50.2062,63.28,77,37,6.87,RU,1629672718
raisio,60.4859,22.169,53.08,87,0,4.61,FI,1629672718
bundaberg,-24.85,152.35,62.89,88,10,5.75,AU,1629672718
saint-pierre,-21.3393,55.4781,65.84,65,0,8.05,RE,1629672719
stromness,58.965,-3.296,57.16,92,85,3.0,GB,1629672719
taltal,-25.4,-70.4833,60.44,80,25,4.81,CL,1629672491
kinsale,51.7075,-8.5306,61.97,100,75,2.3,IE,1629672719
rawson,-43.3002,-65.1023,43.09,93,75,26.46,AR,1629672720
narsaq,60.9167,-46.05,49.55,70,27,3.02,GL,1629672720
brazzaville,-4.2658,15.2832,77.36,69,75,3.44,CG,1629672671
neiafu,-18.65,-173.9833,75.88,83,75,5.75,TO,1629672720
kloulklubed,7.0419,134.2556,83.25,69,92,4.12,PW,1629672721
bongandanga,1.5,21.05,72.93,87,40,1.23,CD,1629672721
chavakkad,10.5333,76.05,75.27,86,100,1.34,IN,1629672721
terney,45.0503,136.6092,69.46,90,100,2.48,RU,1629672722
prattville,32.464,-86.4597,90.82,66,75,3.44,US,1629672722
begampur,22.7417,88.2433,85.91,87,100,10.25,IN,1629672722
alakurtti,66.9672,30.3491,40.62,97,100,10.8,RU,1629672723
thakurgaon,26.0333,88.4667,79.0,90,100,0.78,BD,1629672723
kasongo-lunda,-6.4667,16.8167,76.19,59,31,1.05,CD,1629672723
panguna,-6.3164,155.4848,79.86,64,60,2.59,PG,1629672724
tiarei,-17.5333,-149.3333,77.02,83,41,18.97,PF,1629672724
rochegda,62.8,43.25,53.8,98,89,4.47,RU,1629672724
los llanos de aridane,28.6585,-17.9182,72.12,52,40,11.5,ES,1629672725
praia,14.9215,-23.5087,82.94,78,20,3.44,CV,1629672725
murgab,37.4966,61.9714,75.07,43,0,0.0,TM,1629672725
corinto,37.9407,22.9573,79.5,46,0,4.32,GR,1629672564
pangnirtung,66.1451,-65.7125,54.37,58,100,8.3,CA,1629672726
chaplynka,46.3651,33.5403,68.07,60,28,6.69,UA,1629672726
vila velha,-20.3297,-40.2925,73.35,83,75,10.36,BR,1629672726
sabha,27.0377,14.4283,82.54,27,0,9.98,LY,1629672727
waw,7.7029,27.9953,69.33,98,100,4.76,SS,1629672727
balingen,48.2752,8.8546,58.44,95,1,5.28,DE,1629672727
imbituba,-28.24,-48.6703,66.09,82,0,10.33,BR,1629672669
riohacha,11.5444,-72.9072,85.08,70,63,16.55,CO,1629672728
save,8.0425,2.486,72.41,98,86,3.76,BJ,1629672728
puerto carreno,6.189,-67.4859,80.74,80,97,6.24,CO,1629672728
marsh harbour,26.5412,-77.0636,84.88,75,96,12.88,BS,1629672728
primorskiy,43.0983,131.5875,63.99,75,3,0.94,RU,1629672729
marsaxlokk,35.8419,14.5431,81.09,83,20,4.61,MT,1629672729
tuatapere,-46.1333,167.6833,54.82,75,100,7.38,NZ,1629672729
bagotville,-28.9833,153.4167,67.82,71,8,7.49,AU,1629672730
jumla,29.2747,82.1838,61.57,96,100,0.94,NP,1629672730
lata,40.1629,-8.3327,67.91,85,0,1.83,PT,1629672730
shubarkuduk,49.1447,56.4872,77.25,24,0,8.25,KZ,1629672731
sabang,5.8933,95.3214,81.64,74,97,4.85,ID,1629672731
maceio,-9.6658,-35.7353,72.84,88,75,5.75,BR,1629672731
korla,41.7597,86.1469,75.27,31,3,6.42,CN,1629672732
mbanza-ngungu,-5.25,14.8667,76.64,54,41,8.3,CD,1629672732
lagos,6.5833,3.75,77.32,91,100,3.33,NG,1629672165
madimba,-10.4,40.3333,72.0,87,4,3.85,TZ,1629672732
iraquara,-12.2486,-41.6194,67.71,61,57,6.15,BR,1629672732
kristiinankaupunki,62.2743,21.376,50.07,74,8,10.56,FI,1629672733
linxia,35.6003,103.2064,58.06,67,18,1.68,CN,1629672733
poum,-20.2333,164.0167,72.21,62,2,12.53,NC,1629672733
oistins,13.0667,-59.5333,82.49,83,40,21.85,BB,1629672734
vendas novas,38.6771,-8.4579,66.31,82,0,6.87,PT,1629672734
dingle,10.9995,122.6711,77.76,87,100,2.62,PH,1629672734
gravdal,68.1214,13.5031,49.32,80,76,3.47,NO,1629672735
namibe,-15.1961,12.1522,59.65,86,4,3.85,AO,1629672735
lashio,22.9333,97.75,68.22,100,100,1.45,MM,1629672735
chino valley,34.7575,-112.4538,90.41,30,40,3.0,US,1629672735
muzhi,65.3667,64.6667,60.55,91,97,5.14,RU,1629672736
puri,19.8,85.85,81.12,78,69,16.82,IN,1629672736
halifax,44.6453,-63.5724,68.68,85,18,1.99,CA,1629672598
manbij,36.5281,37.9549,79.57,22,0,8.01,SY,1629672736
marsa matruh,31.3525,27.2453,79.0,73,0,8.05,EG,1629672737
gazojak,41.1875,61.4036,77.0,27,0,8.32,TM,1629672737
umea,63.8284,20.2597,49.93,93,75,4.61,SE,1629672737
bambanglipuro,-7.95,110.2833,72.88,90,82,6.51,ID,1629672738
mecca,21.4267,39.8261,91.08,30,34,6.15,SA,1629672738
mbandaka,0.0487,18.2603,74.16,75,76,2.26,CD,1629672738
alofi,-19.0595,-169.9187,76.89,88,15,4.61,NU,1629672739
deputatskiy,69.3,139.9,47.71,97,100,2.8,RU,1629672739
tutoia,-2.7619,-42.2744,79.45,78,2,12.66,BR,1629672739
kuytun,54.3419,101.5036,47.37,82,43,8.55,RU,1629672740
finschhafen,-6.6024,147.8681,82.2,70,77,10.51,PG,1629672740
waddan,29.1614,16.139,78.69,57,0,13.35,LY,1629672740
uvira,-3.4067,29.1458,75.99,65,23,3.09,CD,1629672740
igarka,67.4667,86.5833,51.42,92,97,4.65,RU,1629672741
mogadishu,2.0371,45.3438,77.0,84,93,15.35,SO,1629672741
banapur,19.7833,85.1833,80.44,84,46,5.93,IN,1629672741
mankachar,25.5333,89.8667,77.58,93,100,10.02,IN,1629672742
puerto madryn,-42.7692,-65.0385,43.09,95,100,35.88,AR,1629672492
cherskiy,68.75,161.3,59.45,57,57,9.46,RU,1629672742
sal rei,16.1833,-22.9167,82.96,88,18,11.81,CV,1629672742
shumskiy,54.8318,99.1328,47.61,84,74,4.25,RU,1629672743
guarapari,-20.6667,-40.4975,73.29,86,0,12.21,BR,1629672743
lorengau,-2.0226,147.2712,81.03,78,100,5.06,PG,1629672743
praia da vitoria,38.7333,-27.0667,75.76,78,40,20.2,PT,1629672744
tuy hoa,13.0833,109.3,77.2,86,96,7.11,VN,1629672744
kimberley,-28.7323,24.7623,44.29,57,2,3.44,ZA,1629672744
zabaykalsk,49.6333,117.3167,61.34,71,100,4.61,RU,1629672744
tocopilla,-22.092,-70.1979,61.84,75,16,6.35,CL,1629672745
aykhal,66.0,111.5,52.77,57,69,6.76,RU,1629672745
mto wa mbu,-3.35,35.85,67.39,80,7,4.47,TZ,1629672745
erenhot,43.6475,111.9767,67.01,27,29,10.6,CN,1629672746
foam lake,51.65,-103.5343,51.82,94,100,17.29,CA,1629672746
grindavik,63.8424,-22.4338,57.15,94,90,21.85,IS,1629672746
tiznit,29.5833,-9.5,68.7,73,13,2.37,MA,1629672747
cozumel,20.5083,-86.9458,82.94,91,100,1.99,MX,1629672602
sambava,-14.2667,50.1667,66.6,85,26,10.92,MG,1629672747
bartica,6.4,-58.6167,79.12,97,96,2.77,GY,1629672747
anchorage,61.2181,-149.9003,59.45,82,90,0.0,US,1629672717
bilibino,68.0546,166.4372,61.57,54,80,3.31,RU,1629672748
dunedin,-45.8742,170.5036,55.35,65,60,2.37,NZ,1629672748
kontagora,10.3999,5.4695,73.17,91,100,1.16,NG,1629672748
sept-iles,50.2001,-66.3821,64.92,85,75,3.0,CA,1629672725
batesville,35.7698,-91.641,92.95,58,90,4.61,US,1629672749
ekhabi,53.5102,142.9671,65.03,71,7,12.19,RU,1629672749
balaipungut,1.05,101.2833,75.61,99,84,2.51,ID,1629672749
auki,-8.7676,160.7034,82.18,73,34,6.33,SB,1629672750
guanhaes,-18.775,-42.9325,62.04,60,0,5.06,BR,1629672750
boyolangu,-8.1181,111.8935,71.51,93,81,0.85,ID,1629672750
whitehorse,60.7161,-135.0538,60.1,38,40,4.61,CA,1629672751
lebrija,36.9208,-6.0753,82.29,78,0,5.75,ES,1629672751
atbasar,51.8,68.3333,66.45,62,0,8.03,KZ,1629672751
kismayo,-0.3582,42.5454,75.99,84,7,15.79,SO,1629672752
maarianhamina,60.0973,19.9348,44.46,93,0,1.14,AX,1629672752
inhambane,-23.865,35.3833,70.23,78,62,11.21,MZ,1629672752
muscat,23.6139,58.5922,86.25,70,100,4.92,OM,1629672753
kedrovyy,56.1667,91.8167,37.81,86,50,2.53,RU,1629672753
barcelos,41.5388,-8.6151,73.29,76,0,3.33,PT,1629672753
souillac,-20.5167,57.5167,66.58,72,75,6.91,MU,1629672753
juneau,58.3019,-134.4197,68.05,64,20,9.22,US,1629672497
kidodi,-7.6036,37.0044,69.64,86,12,1.61,TZ,1629672754
nizhniy kuranakh,58.8353,125.4869,57.43,97,100,1.23,RU,1629672754
visavadar,21.3833,70.6833,76.21,95,90,6.53,IN,1629672754
shetpe,44.1667,52.1167,82.33,18,0,8.55,KZ,1629672755
ossora,59.2353,163.0719,59.65,81,73,8.57,RU,1629672755
campoverde,-8.4753,-74.8058,88.5,40,71,2.48,PE,1629672755
booue,-0.0921,11.9385,74.3,86,58,3.04,GA,1629672756
mareeba,-17.0,145.4333,70.52,69,78,5.7,AU,1629672756
vryburg,-26.9566,24.7284,56.82,40,43,3.87,ZA,1629672655
asfi,32.2994,-9.2372,69.17,90,0,12.55,MA,1629672756
monroe,43.1501,-77.6831,82.4,74,75,10.36,US,1629672577
vynohradove,46.3696,32.9398,67.64,57,34,6.91,UA,1629672757
bandarbeyla,9.4942,50.8122,77.54,79,94,16.24,SO,1629672757
